[
  {
    "name": "양양 서피비치",
    "description": "한국 서핑의 메카. 완만한 파도와 넓은 백사장으로 초보자부터 중급자까지 즐기기 좋은 해변. 서핑 스쿨과 렌탈샵이 밀집해 있어 접근성이 뛰어남.",
    "latitude": 38.0773,
    "longitude": 128.6167,
    "address": "강원도 양양군 현남면 인구해변길",
    "region": "양양",
    "difficulty": "BEGINNER",
    "amenities": { "parking": true, "shower": true, "rental": true, "lesson": true, "cafe": true },
    "breakType": "beach_break",
    "bestSwellDirection": "E",
    "season": "6월~10월"
  },
  {
    "name": "양양 죽도해변",
    "description": "서피비치 북쪽에 위치한 해변. 서피비치보다 파도가 약간 세고 사람이 적어 중급 서퍼들이 선호하는 포인트.",
    "latitude": 38.0935,
    "longitude": 128.6318,
    "address": "강원도 양양군 현북면 하광정리",
    "region": "양양",
    "difficulty": "INTERMEDIATE",
    "amenities": { "parking": true, "shower": true, "rental": true },
    "breakType": "beach_break",
    "bestSwellDirection": "E",
    "season": "6월~10월"
  },
  {
    "name": "양양 기사문해변",
    "description": "양양 남쪽에 위치한 조용한 서핑 포인트. 리프 브레이크가 있어 중상급자에게 적합하며, 스웰이 좋을 때 퀄리티 높은 파도가 형성됨.",
    "latitude": 37.9547,
    "longitude": 128.7983,
    "address": "강원도 양양군 손양면 기사문리",
    "region": "양양",
    "difficulty": "ADVANCED",
    "amenities": { "parking": true, "shower": false },
    "breakType": "reef_break",
    "bestSwellDirection": "NE",
    "season": "6월~10월"
  },
  {
    "name": "양양 하조대해변",
    "description": "한국 유일의 서핑 전용 지정 해변. 소나무 숲이 뒤배경으로 펼쳐진 아름다운 포인트. 중급 서퍼에게 안정적인 파도를 제공.",
    "latitude": 38.1050,
    "longitude": 128.6150,
    "address": "강원도 양양군 현북면 하조대해변길",
    "region": "양양",
    "difficulty": "INTERMEDIATE",
    "amenities": { "parking": true, "shower": true, "rental": true, "lesson": true },
    "breakType": "beach_break",
    "bestSwellDirection": "E",
    "season": "6월~10월"
  },
  {
    "name": "양양 38도선해변",
    "description": "하조대 남쪽에 위치한 로컬 서퍼 인기 포인트. 외국인 서퍼들도 많이 찾으며, 조용한 분위기에서 양질의 파도를 즐길 수 있음.",
    "latitude": 38.0900,
    "longitude": 128.6200,
    "address": "강원도 양양군 현북면",
    "region": "양양",
    "difficulty": "INTERMEDIATE",
    "amenities": { "parking": true, "shower": true, "rental": true },
    "breakType": "beach_break",
    "bestSwellDirection": "E",
    "season": "6월~10월"
  },
  {
    "name": "강릉 사천해변",
    "description": "강릉 시내에서 접근이 쉬운 서핑 해변. 완만한 경사와 모래 바닥으로 초보자에게 안전하며, 서핑 커뮤니티가 활발.",
    "latitude": 37.8128,
    "longitude": 128.8815,
    "address": "강원도 강릉시 사천면 사천해변길",
    "region": "강릉",
    "difficulty": "BEGINNER",
    "amenities": { "parking": true, "shower": true, "rental": true, "lesson": true },
    "breakType": "beach_break",
    "bestSwellDirection": "E",
    "season": "6월~10월"
  },
  {
    "name": "강릉 경포해변",
    "description": "강릉 대표 해변. 일출 명소로 유명하며, 여름철 완만한 파도로 초보자 서핑 체험에 적합. 넓은 백사장과 편의시설 완비.",
    "latitude": 37.7970,
    "longitude": 128.9100,
    "address": "강원도 강릉시 강문동 경포해변로",
    "region": "강릉",
    "difficulty": "BEGINNER",
    "amenities": { "parking": true, "shower": true, "rental": true, "lesson": true, "cafe": true },
    "breakType": "beach_break",
    "bestSwellDirection": "E",
    "season": "6월~10월"
  },
  {
    "name": "속초해변",
    "description": "설악산 국립공원 인근 해변. 동해안 특유의 깨끗한 물과 안정적인 파도. 서핑 후 설악산 관광까지 가능한 장점.",
    "latitude": 38.2050,
    "longitude": 128.5950,
    "address": "강원도 속초시 해오름로",
    "region": "속초",
    "difficulty": "BEGINNER",
    "amenities": { "parking": true, "shower": true, "rental": true },
    "breakType": "beach_break",
    "bestSwellDirection": "NE",
    "season": "6월~10월"
  },
  {
    "name": "고성 봉포해변",
    "description": "강원도 북쪽의 한적한 서핑 포인트. 맑은 물과 좋은 파도 퀄리티로 로컬 서퍼들이 아끼는 곳.",
    "latitude": 38.2934,
    "longitude": 128.5561,
    "address": "강원도 고성군 죽왕면 봉포리",
    "region": "고성",
    "difficulty": "INTERMEDIATE",
    "amenities": { "parking": true },
    "breakType": "beach_break",
    "bestSwellDirection": "NE",
    "season": "6월~10월"
  },
  {
    "name": "고성 대진해변",
    "description": "한국 최북단 주요 서핑 포인트. 한적하고 깨끗한 환경에서 서핑 가능. 초보자도 접근 가능한 완만한 파도.",
    "latitude": 38.5000,
    "longitude": 128.4300,
    "address": "강원도 고성군 현내면 대진리",
    "region": "고성",
    "difficulty": "BEGINNER",
    "amenities": { "parking": true, "shower": true },
    "breakType": "beach_break",
    "bestSwellDirection": "NE",
    "season": "6월~10월"
  },
  {
    "name": "부산 송정해변",
    "description": "부산 최고의 서핑 해변. 도심과 가까워 접근성이 좋고, 꾸준한 파도가 들어옴. 사계절 서핑이 가능하며 서핑 문화가 활발한 곳.",
    "latitude": 35.1783,
    "longitude": 129.2003,
    "address": "부산광역시 해운대구 송정해변로",
    "region": "부산",
    "difficulty": "BEGINNER",
    "amenities": { "parking": true, "shower": true, "rental": true, "lesson": true, "cafe": true, "restaurant": true },
    "breakType": "beach_break",
    "bestSwellDirection": "SE",
    "season": "6월~11월"
  },
  {
    "name": "부산 임랑해변",
    "description": "송정 북쪽에 위치한 해변. 송정보다 사람이 적고 파도가 약간 강해 중급 서퍼에게 인기. 로컬 분위기의 조용한 포인트.",
    "latitude": 35.2350,
    "longitude": 129.2300,
    "address": "부산광역시 기장군 장안읍 임랑해변길",
    "region": "부산",
    "difficulty": "INTERMEDIATE",
    "amenities": { "parking": true, "shower": true, "rental": true },
    "breakType": "beach_break",
    "bestSwellDirection": "SE",
    "season": "6월~11월"
  },
  {
    "name": "부산 다대포해변",
    "description": "부산 서쪽 끝 다대포 해변. 태풍 스웰 시 강한 파도가 형성되어 중급 이상 서퍼에게 적합. 낙동강 하구 일몰 경치가 장관.",
    "latitude": 35.0530,
    "longitude": 128.9660,
    "address": "부산광역시 사하구 다대로",
    "region": "부산",
    "difficulty": "INTERMEDIATE",
    "amenities": { "parking": true, "shower": true },
    "breakType": "beach_break",
    "bestSwellDirection": "S",
    "season": "6월~11월"
  },
  {
    "name": "부산 해운대해변",
    "description": "한국에서 가장 유명한 해변. 여름철 파도가 들어올 때 초보자 서핑 체험이 가능. 접근성과 편의시설 최고 수준.",
    "latitude": 35.1585,
    "longitude": 129.1604,
    "address": "부산광역시 해운대구 해운대해변로",
    "region": "부산",
    "difficulty": "BEGINNER",
    "amenities": { "parking": true, "shower": true, "rental": true, "lesson": true, "cafe": true, "restaurant": true },
    "breakType": "beach_break",
    "bestSwellDirection": "SE",
    "season": "6월~11월"
  },
  {
    "name": "제주 중문해변",
    "description": "제주도 남쪽 중문관광단지 내 위치. 검은 모래와 강한 파도가 특징. 파워풀한 비치 브레이크로 중상급자에게 인기.",
    "latitude": 33.2447,
    "longitude": 126.4108,
    "address": "제주특별자치도 서귀포시 중문관광로",
    "region": "제주",
    "difficulty": "INTERMEDIATE",
    "amenities": { "parking": true, "shower": true, "rental": true, "lesson": true },
    "breakType": "beach_break",
    "bestSwellDirection": "S",
    "season": "연중"
  },
  {
    "name": "제주 이호테우해변",
    "description": "제주 시내에서 가장 가까운 서핑 해변. 빨간·하얀 말 등대로 유명하며 초보자도 편하게 서핑할 수 있는 부드러운 파도.",
    "latitude": 33.5200,
    "longitude": 126.4530,
    "address": "제주특별자치도 제주시 이호일동",
    "region": "제주",
    "difficulty": "BEGINNER",
    "amenities": { "parking": true, "shower": true, "rental": true, "lesson": true },
    "breakType": "beach_break",
    "bestSwellDirection": "N",
    "season": "연중"
  },
  {
    "name": "제주 월정리해변",
    "description": "동제주 대표 서핑 해변. 에메랄드빛 바다와 하얀 모래가 아름다운 곳. 일정한 파도로 초중급자에게 적합.",
    "latitude": 33.5558,
    "longitude": 126.7966,
    "address": "제주특별자치도 제주시 구좌읍 월정리",
    "region": "제주",
    "difficulty": "BEGINNER",
    "amenities": { "parking": true, "shower": true, "rental": true, "lesson": true, "cafe": true },
    "breakType": "beach_break",
    "bestSwellDirection": "N",
    "season": "연중"
  },
  {
    "name": "제주 곽지해변",
    "description": "서제주의 여유로운 서핑 해변. 한적한 분위기에서 서핑을 즐기기 좋으며, 근처 과물노천탕(천연 해수탕)이 매력.",
    "latitude": 33.4550,
    "longitude": 126.3280,
    "address": "제주특별자치도 제주시 애월읍 곽지리",
    "region": "제주",
    "difficulty": "BEGINNER",
    "amenities": { "parking": true, "shower": true, "rental": true },
    "breakType": "beach_break",
    "bestSwellDirection": "NW",
    "season": "연중"
  },
  {
    "name": "제주 표선해변",
    "description": "남제주의 순한 파도 해변. 수심이 얕고 파도가 부드러워 서핑 입문자에게 최적. 넓은 백사장이 특징.",
    "latitude": 33.3200,
    "longitude": 126.8400,
    "address": "제주특별자치도 서귀포시 표선면 표선리",
    "region": "제주",
    "difficulty": "BEGINNER",
    "amenities": { "parking": true, "shower": true, "rental": true },
    "breakType": "beach_break",
    "bestSwellDirection": "S",
    "season": "연중"
  },
  {
    "name": "제주 함덕해변",
    "description": "북제주 함덕 서우봉 해변. 수심이 얕고 안전하여 초보자에게 인기. 투명한 물빛과 아름다운 경관.",
    "latitude": 33.5430,
    "longitude": 126.6690,
    "address": "제주특별자치도 제주시 조천읍 함덕리",
    "region": "제주",
    "difficulty": "BEGINNER",
    "amenities": { "parking": true, "shower": true, "rental": true, "lesson": true },
    "breakType": "beach_break",
    "bestSwellDirection": "N",
    "season": "연중"
  },
  {
    "name": "태안 만리포해변",
    "description": "서해안 대표 서핑 해변. 서해 특유의 넓은 백사장과 완만한 파도. 초보자 서핑 체험에 좋고, 서해안 일몰이 아름다움.",
    "latitude": 36.7900,
    "longitude": 126.1400,
    "address": "충청남도 태안군 소원면 만리포해변길",
    "region": "태안",
    "difficulty": "BEGINNER",
    "amenities": { "parking": true, "shower": true, "rental": true, "lesson": true },
    "breakType": "beach_break",
    "bestSwellDirection": "W",
    "season": "9월~11월"
  },
  {
    "name": "고흥 남열해변",
    "description": "남해안(전남) 서핑 포인트. 5~10월 시즌에 파도가 들어오며, 남해안 특유의 따뜻한 수온이 장점.",
    "latitude": 34.5800,
    "longitude": 127.1000,
    "address": "전라남도 고흥군 영남면 남열리",
    "region": "고흥",
    "difficulty": "INTERMEDIATE",
    "amenities": { "parking": true, "shower": true },
    "breakType": "beach_break",
    "bestSwellDirection": "S",
    "season": "6월~10월"
  },
  {
    "name": "포항 칠포해변",
    "description": "동해남부 포항의 서핑 해변. 간조 시 한국에서 가장 빠른 파도가 형성되는 것으로 유명. 겨울 시즌 파도가 좋음.",
    "latitude": 36.0300,
    "longitude": 129.3800,
    "address": "경상북도 포항시 북구 흥해읍 칠포리",
    "region": "포항",
    "difficulty": "INTERMEDIATE",
    "amenities": { "parking": true, "shower": true, "rental": true },
    "breakType": "beach_break",
    "bestSwellDirection": "E",
    "season": "6월~10월"
  },

  {
    "name": "Uluwatu",
    "description": "세계적으로 유명한 레프트 핸드 리프 브레이크. 절벽 아래 동굴을 통해 진입. 5개 섹션(Racetrack, Peak, Temples, Outside Corner, Bombie)으로 구성. 상급자 전용.",
    "latitude": -8.8166,
    "longitude": 115.0863,
    "address": "Pecatu, South Kuta, Badung Regency, Bali",
    "region": "Bali - Bukit",
    "difficulty": "EXPERT",
    "amenities": { "parking": true, "cafe": true },
    "breakType": "reef_break",
    "bestSwellDirection": "S",
    "season": "4월~10월"
  },
  {
    "name": "Padang Padang",
    "description": "\"발리니즈 파이프라인\"으로 불리는 월드클래스 배럴 머신. 빅 스웰 시 완벽한 레프트 튜브가 형성. 상급자 전용.",
    "latitude": -8.8136,
    "longitude": 115.0983,
    "address": "Pecatu, South Kuta, Badung Regency, Bali",
    "region": "Bali - Bukit",
    "difficulty": "ADVANCED",
    "amenities": { "parking": true, "cafe": true },
    "breakType": "reef_break",
    "bestSwellDirection": "SW",
    "season": "4월~10월"
  },
  {
    "name": "Baby Padang",
    "description": "파당파당 바로 옆의 부드러운 리프 브레이크. 파당파당보다 파도가 순해서 중급자도 도전 가능.",
    "latitude": -8.8125,
    "longitude": 115.0990,
    "address": "Pecatu, South Kuta, Badung Regency, Bali",
    "region": "Bali - Bukit",
    "difficulty": "INTERMEDIATE",
    "amenities": { "parking": true },
    "breakType": "reef_break",
    "bestSwellDirection": "SW",
    "season": "4월~10월"
  },
  {
    "name": "Impossibles",
    "description": "부킷 반도의 긴 레프트 핸드 리프. 4~6ft에서 최고의 컨디션. 한 파도에서 여러 번의 배럴이 가능한 포인트.",
    "latitude": -8.8090,
    "longitude": 115.1030,
    "address": "Pecatu, South Kuta, Badung Regency, Bali",
    "region": "Bali - Bukit",
    "difficulty": "INTERMEDIATE",
    "amenities": { "parking": true },
    "breakType": "reef_break",
    "bestSwellDirection": "SW",
    "season": "4월~10월"
  },
  {
    "name": "Bingin",
    "description": "부킷에서 가장 접근하기 쉬운 배럴. 하이타이드에서 중급자도 가능. 절벽 아래 작은 해변에서 진입.",
    "latitude": -8.8070,
    "longitude": 115.1060,
    "address": "Pecatu, South Kuta, Badung Regency, Bali",
    "region": "Bali - Bukit",
    "difficulty": "INTERMEDIATE",
    "amenities": { "parking": true, "cafe": true },
    "breakType": "reef_break",
    "bestSwellDirection": "SW",
    "season": "4월~10월"
  },
  {
    "name": "Dreamland",
    "description": "부킷 서쪽의 넓은 비치/리프 혼합 브레이크. 깊은 수심과 모래 덮인 리프로 비교적 안전. 다양한 레벨 대응 가능.",
    "latitude": -8.8030,
    "longitude": 115.1080,
    "address": "Pecatu, South Kuta, Badung Regency, Bali",
    "region": "Bali - Bukit",
    "difficulty": "INTERMEDIATE",
    "amenities": { "parking": true, "shower": true, "cafe": true },
    "breakType": "beach_reef_break",
    "bestSwellDirection": "SW",
    "season": "4월~10월"
  },
  {
    "name": "Balangan Beach",
    "description": "부킷 반도 서쪽의 아름다운 해변. 일관성 있는 레프트 핸드 리프. 작은 스웰부터 큰 스웰까지 대응 가능. 절벽 위 뷰포인트가 매력적.",
    "latitude": -8.7950,
    "longitude": 115.1120,
    "address": "Jimbaran, South Kuta, Badung Regency, Bali",
    "region": "Bali - Bukit",
    "difficulty": "ADVANCED",
    "amenities": { "parking": true, "cafe": true },
    "breakType": "reef_break",
    "bestSwellDirection": "SW",
    "season": "4월~10월"
  },
  {
    "name": "Thomas Beach",
    "description": "임파서블스 근처의 한적한 브레이크. 관광객이 적어 여유로운 서핑 가능. 강한 조류에 주의 필요.",
    "latitude": -8.8100,
    "longitude": 115.1050,
    "address": "Pecatu, South Kuta, Badung Regency, Bali",
    "region": "Bali - Bukit",
    "difficulty": "INTERMEDIATE",
    "amenities": { "parking": true },
    "breakType": "reef_break",
    "bestSwellDirection": "SW",
    "season": "4월~10월"
  },
  {
    "name": "Pandawa",
    "description": "부킷 남쪽 해안 최고의 파도로 평가받는 리프 브레이크. 절벽 사이 숨겨진 해변에서 진입.",
    "latitude": -8.8440,
    "longitude": 115.1830,
    "address": "Kutuh, South Kuta, Badung Regency, Bali",
    "region": "Bali - South Coast",
    "difficulty": "INTERMEDIATE",
    "amenities": { "parking": true, "cafe": true },
    "breakType": "reef_break",
    "bestSwellDirection": "S",
    "season": "4월~10월"
  },
  {
    "name": "Green Bowl",
    "description": "2개의 브레이크(강력한 라이트 + 고품질 레프트). 데드 로우타이드(0.0~0.2m)에서만 서핑 가능. 절벽 300계단 내려가야 함.",
    "latitude": -8.8380,
    "longitude": 115.1920,
    "address": "Ungasan, South Kuta, Badung Regency, Bali",
    "region": "Bali - South Coast",
    "difficulty": "ADVANCED",
    "amenities": { "parking": true },
    "breakType": "reef_break",
    "bestSwellDirection": "S",
    "season": "4월~10월"
  },
  {
    "name": "Nyang Nyang",
    "description": "파워풀한 라이트 핸드 브레이크. 울루와투보다 항상 1ft 더 큰 파도. 해변까지 긴 하이킹 필요.",
    "latitude": -8.8350,
    "longitude": 115.0780,
    "address": "Pecatu, South Kuta, Badung Regency, Bali",
    "region": "Bali - South Coast",
    "difficulty": "INTERMEDIATE",
    "amenities": { "parking": true },
    "breakType": "reef_break",
    "bestSwellDirection": "S",
    "season": "4월~10월"
  },
  {
    "name": "Gunung Payung",
    "description": "강력한 시프팅 라이트 핸드 피크. 파도 위치가 계속 바뀌어 경험 많은 서퍼에게 적합.",
    "latitude": -8.8460,
    "longitude": 115.1990,
    "address": "Kutuh, South Kuta, Badung Regency, Bali",
    "region": "Bali - South Coast",
    "difficulty": "ADVANCED",
    "amenities": { "parking": true },
    "breakType": "reef_break",
    "bestSwellDirection": "S",
    "season": "4월~10월"
  },
  {
    "name": "Nunggalan",
    "description": "부킷 반도 남서쪽 끝의 외진 리프 브레이크. 접근이 매우 어려워 체력이 필요. 크라우드가 없어 파도 독점 가능.",
    "latitude": -8.8380,
    "longitude": 115.0720,
    "address": "Pecatu, South Kuta, Badung Regency, Bali",
    "region": "Bali - South Coast",
    "difficulty": "ADVANCED",
    "amenities": { "parking": true },
    "breakType": "reef_break",
    "bestSwellDirection": "S",
    "season": "4월~10월"
  },
  {
    "name": "Melasti",
    "description": "2개의 피크가 있어 다양한 레벨 대응 가능. 비교적 새로 개발된 해변이라 시설이 깨끗.",
    "latitude": -8.8410,
    "longitude": 115.1650,
    "address": "Ungasan, South Kuta, Badung Regency, Bali",
    "region": "Bali - South Coast",
    "difficulty": "INTERMEDIATE",
    "amenities": { "parking": true, "shower": true, "cafe": true },
    "breakType": "reef_break",
    "bestSwellDirection": "S",
    "season": "4월~10월"
  },
  {
    "name": "Sri Lanka (Nusa Dua)",
    "description": "누사두아 해안선 최고의 파도. 일관성 있는 리프 브레이크. 동쪽~남동쪽 스웰에 잘 반응.",
    "latitude": -8.8050,
    "longitude": 115.2310,
    "address": "Benoa, South Kuta, Badung Regency, Bali",
    "region": "Bali - Nusa Dua",
    "difficulty": "INTERMEDIATE",
    "amenities": { "parking": true },
    "breakType": "reef_break",
    "bestSwellDirection": "SE",
    "season": "11월~3월"
  },
  {
    "name": "Geger Left",
    "description": "누사두아 남쪽의 경치 좋은 코너 브레이크. 레프트 핸드 리프로 비교적 안정적인 파도.",
    "latitude": -8.8120,
    "longitude": 115.2250,
    "address": "Benoa, South Kuta, Badung Regency, Bali",
    "region": "Bali - Nusa Dua",
    "difficulty": "INTERMEDIATE",
    "amenities": { "parking": true, "cafe": true },
    "breakType": "reef_break",
    "bestSwellDirection": "SE",
    "season": "11월~3월"
  },
  {
    "name": "Geger Right",
    "description": "절대 플랫하지 않은 포인트. 대형 스웰도 받아내는 강력한 라이트 핸드 리프. 상급자 도전용.",
    "latitude": -8.8100,
    "longitude": 115.2270,
    "address": "Benoa, South Kuta, Badung Regency, Bali",
    "region": "Bali - Nusa Dua",
    "difficulty": "ADVANCED",
    "amenities": { "parking": true },
    "breakType": "reef_break",
    "bestSwellDirection": "SE",
    "season": "11월~3월"
  },
  {
    "name": "Chicken Wings",
    "description": "누사두아의 긴 퍼포먼스 지향 리프. 빠른 섹션과 컷백 구간이 번갈아 나타남.",
    "latitude": -8.8000,
    "longitude": 115.2340,
    "address": "Benoa, South Kuta, Badung Regency, Bali",
    "region": "Bali - Nusa Dua",
    "difficulty": "INTERMEDIATE",
    "amenities": { "parking": true },
    "breakType": "reef_break",
    "bestSwellDirection": "SE",
    "season": "11월~3월"
  },
  {
    "name": "Mengiat",
    "description": "빠르고 변화무쌍한 A-프레임 리프. 남동쪽 스웰에 반응. 파도 위치가 자주 바뀌어 적응력 필요.",
    "latitude": -8.7980,
    "longitude": 115.2350,
    "address": "Benoa, South Kuta, Badung Regency, Bali",
    "region": "Bali - Nusa Dua",
    "difficulty": "INTERMEDIATE",
    "amenities": { "parking": true },
    "breakType": "reef_break",
    "bestSwellDirection": "SE",
    "season": "11월~3월"
  },
  {
    "name": "Black Stone",
    "description": "가파른 웨지 테이크오프가 특징인 리프 브레이크. 빠른 반응속도가 필요.",
    "latitude": -8.7940,
    "longitude": 115.2370,
    "address": "Benoa, South Kuta, Badung Regency, Bali",
    "region": "Bali - Nusa Dua",
    "difficulty": "INTERMEDIATE",
    "amenities": { "parking": true },
    "breakType": "reef_break",
    "bestSwellDirection": "SE",
    "season": "11월~3월"
  },
  {
    "name": "Mushroom Rock",
    "description": "빠른 라이트 핸드 리프 브레이크. 누사두아 중심부에 위치. 보트 또는 패들로 접근.",
    "latitude": -8.7900,
    "longitude": 115.2380,
    "address": "Benoa, South Kuta, Badung Regency, Bali",
    "region": "Bali - Nusa Dua",
    "difficulty": "INTERMEDIATE",
    "amenities": { "parking": true },
    "breakType": "reef_break",
    "bestSwellDirection": "SE",
    "season": "11월~3월"
  },
  {
    "name": "Mushroom Secrets",
    "description": "머쉬룸 록 옆의 보호된 리프. 파도가 더 부드러워 초중급자도 도전 가능. 누사두아 입문 포인트.",
    "latitude": -8.7890,
    "longitude": 115.2370,
    "address": "Benoa, South Kuta, Badung Regency, Bali",
    "region": "Bali - Nusa Dua",
    "difficulty": "BEGINNER",
    "amenities": { "parking": true },
    "breakType": "reef_break",
    "bestSwellDirection": "SE",
    "season": "11월~3월"
  },
  {
    "name": "Benoa",
    "description": "멀티 피크 리프로 누사두아에서 가장 긴 라이드 가능. 여러 테이크오프 포인트가 있어 크라우드 분산.",
    "latitude": -8.7760,
    "longitude": 115.2200,
    "address": "Tanjung Benoa, South Kuta, Badung Regency, Bali",
    "region": "Bali - Nusa Dua",
    "difficulty": "INTERMEDIATE",
    "amenities": { "parking": true },
    "breakType": "reef_break",
    "bestSwellDirection": "SE",
    "season": "11월~3월"
  },
  {
    "name": "Toro Toro",
    "description": "에어포트 리프에서 가장 인기 있는 포인트. 길고 부드러운 라이트 핸드 월. 보트 접근.",
    "latitude": -8.7520,
    "longitude": 115.1650,
    "address": "Tuban, Kuta, Badung Regency, Bali",
    "region": "Bali - Airport Reef",
    "difficulty": "INTERMEDIATE",
    "amenities": { "parking": false },
    "breakType": "reef_break",
    "bestSwellDirection": "SW",
    "season": "4월~10월"
  },
  {
    "name": "Tower",
    "description": "에어포트 리프 중 가장 부드러운 파도. 리폼 웨이브로 초보자 리프 서핑 체험에 적합.",
    "latitude": -8.7500,
    "longitude": 115.1630,
    "address": "Tuban, Kuta, Badung Regency, Bali",
    "region": "Bali - Airport Reef",
    "difficulty": "BEGINNER",
    "amenities": { "parking": false },
    "breakType": "reef_break",
    "bestSwellDirection": "SW",
    "season": "4월~10월"
  },
  {
    "name": "Airport Right",
    "description": "장난스러운 파도부터 헤비 배럴까지 다양한 면을 보여주는 라이트 핸드 리프. 보트 접근.",
    "latitude": -8.7480,
    "longitude": 115.1700,
    "address": "Tuban, Kuta, Badung Regency, Bali",
    "region": "Bali - Airport Reef",
    "difficulty": "INTERMEDIATE",
    "amenities": { "parking": false },
    "breakType": "reef_break",
    "bestSwellDirection": "S",
    "season": "4월~10월"
  },
  {
    "name": "Airport Left",
    "description": "에어포트 리프의 레프트 핸드 옵션. 길고 부드러운 월이 특징. 라이트보다 크라우드가 적음.",
    "latitude": -8.7470,
    "longitude": 115.1680,
    "address": "Tuban, Kuta, Badung Regency, Bali",
    "region": "Bali - Airport Reef",
    "difficulty": "INTERMEDIATE",
    "amenities": { "parking": false },
    "breakType": "reef_break",
    "bestSwellDirection": "S",
    "season": "4월~10월"
  },
  {
    "name": "Middle Reef",
    "description": "에어포트 리프 중 가장 일관성 있는 포인트. 빠른 월과 섹션이 반복. 상급자 추천.",
    "latitude": -8.7460,
    "longitude": 115.1720,
    "address": "Tuban, Kuta, Badung Regency, Bali",
    "region": "Bali - Airport Reef",
    "difficulty": "ADVANCED",
    "amenities": { "parking": false },
    "breakType": "reef_break",
    "bestSwellDirection": "SW",
    "season": "4월~10월"
  },
  {
    "name": "Kuta Reef",
    "description": "오리지널 퍼펙트 웨이브. 기계처럼 정확한 레프트 핸드 리프. 발리 서핑 역사의 시작점. 보트 접근.",
    "latitude": -8.7440,
    "longitude": 115.1750,
    "address": "Kuta, Badung Regency, Bali",
    "region": "Bali - Airport Reef",
    "difficulty": "INTERMEDIATE",
    "amenities": { "parking": false },
    "breakType": "reef_break",
    "bestSwellDirection": "SW",
    "season": "4월~10월"
  },
  {
    "name": "Honeymoon",
    "description": "짐바란 만의 포인트 브레이크. 대형 스웰 시에만 작동하지만, 작동하면 강력한 파도 제공.",
    "latitude": -8.7680,
    "longitude": 115.1580,
    "address": "Jimbaran, South Kuta, Badung Regency, Bali",
    "region": "Bali - Jimbaran",
    "difficulty": "ADVANCED",
    "amenities": { "parking": true },
    "breakType": "point_break",
    "bestSwellDirection": "SW",
    "season": "4월~10월"
  },
  {
    "name": "Muaya",
    "description": "짐바란 해변의 비치 브레이크. 대형 스웰이 있을 때 초보자도 즐길 수 있는 부드러운 파도. 해산물 식당 밀집 지역.",
    "latitude": -8.7780,
    "longitude": 115.1570,
    "address": "Jimbaran, South Kuta, Badung Regency, Bali",
    "region": "Bali - Jimbaran",
    "difficulty": "BEGINNER",
    "amenities": { "parking": true, "restaurant": true },
    "breakType": "beach_break",
    "bestSwellDirection": "SW",
    "season": "4월~10월"
  },
  {
    "name": "Ahimsa",
    "description": "짐바란의 변덕스러운 A-프레임 리프. 조건이 맞으면 초보자도 즐길 수 있는 부드러운 파도.",
    "latitude": -8.7700,
    "longitude": 115.1560,
    "address": "Jimbaran, South Kuta, Badung Regency, Bali",
    "region": "Bali - Jimbaran",
    "difficulty": "BEGINNER",
    "amenities": { "parking": true },
    "breakType": "reef_break",
    "bestSwellDirection": "SW",
    "season": "4월~10월"
  },
  {
    "name": "Lifeguard Hut",
    "description": "짐바란 라이프가드 초소 앞 하이타이드 피크. 밀물 때만 서핑 가능. 초보자 접근 가능.",
    "latitude": -8.7720,
    "longitude": 115.1550,
    "address": "Jimbaran, South Kuta, Badung Regency, Bali",
    "region": "Bali - Jimbaran",
    "difficulty": "BEGINNER",
    "amenities": { "parking": true },
    "breakType": "beach_break",
    "bestSwellDirection": "SW",
    "season": "4월~10월"
  },
  {
    "name": "Kuta Beach",
    "description": "발리 서핑의 시작점. 넓고 완만한 비치 브레이크로 초보자에게 최적. 서핑 스쿨이 해변을 따라 줄지어 있으며, 석양이 아름다운 곳.",
    "latitude": -8.7193,
    "longitude": 115.1686,
    "address": "Kuta, Badung Regency, Bali",
    "region": "Bali - Kuta",
    "difficulty": "BEGINNER",
    "amenities": { "parking": true, "shower": true, "rental": true, "lesson": true, "cafe": true, "restaurant": true },
    "breakType": "beach_break",
    "bestSwellDirection": "SW",
    "season": "4월~10월"
  },
  {
    "name": "Halfway",
    "description": "쿠타~레기안 사이의 프리미어 피크. 다양한 조건에서 작동하는 만능 비치 브레이크.",
    "latitude": -8.7100,
    "longitude": 115.1650,
    "address": "Legian, Kuta, Badung Regency, Bali",
    "region": "Bali - Kuta",
    "difficulty": "INTERMEDIATE",
    "amenities": { "parking": true, "rental": true },
    "breakType": "beach_break",
    "bestSwellDirection": "SW",
    "season": "4월~10월"
  },
  {
    "name": "Padma",
    "description": "월드클래스 비치 브레이크. 배럴 포텐셜이 있는 강력한 파도. 레기안 지역 최고 퀄리티.",
    "latitude": -8.7050,
    "longitude": 115.1630,
    "address": "Legian, Kuta, Badung Regency, Bali",
    "region": "Bali - Kuta",
    "difficulty": "INTERMEDIATE",
    "amenities": { "parking": true, "rental": true },
    "breakType": "beach_break",
    "bestSwellDirection": "SW",
    "season": "4월~10월"
  },
  {
    "name": "Double Six",
    "description": "하이타이드 스페셜리스트. 밀물 때 부드러운 파도가 형성되어 초중급자에게 적합.",
    "latitude": -8.6980,
    "longitude": 115.1590,
    "address": "Seminyak, North Kuta, Badung Regency, Bali",
    "region": "Bali - Kuta",
    "difficulty": "BEGINNER",
    "amenities": { "parking": true, "cafe": true, "restaurant": true },
    "breakType": "beach_break",
    "bestSwellDirection": "SW",
    "season": "4월~10월"
  },
  {
    "name": "Kul Kul",
    "description": "모래 바닥 비치 브레이크. 타이드에 따라 난이도 변화. 하이타이드에서 초보자, 로우타이드에서 중급 이상.",
    "latitude": -8.6940,
    "longitude": 115.1570,
    "address": "Seminyak, North Kuta, Badung Regency, Bali",
    "region": "Bali - Kuta",
    "difficulty": "INTERMEDIATE",
    "amenities": { "parking": true, "cafe": true },
    "breakType": "beach_break",
    "bestSwellDirection": "SW",
    "season": "4월~10월"
  },
  {
    "name": "Seminyak Beach",
    "description": "쿠타보다 조용한 세미냑 비치. 완만한 파도로 초중급자에게 적합. 고급 리조트와 부티크가 즐비한 트렌디한 지역.",
    "latitude": -8.6903,
    "longitude": 115.1550,
    "address": "Seminyak, North Kuta, Badung Regency, Bali",
    "region": "Bali - Kuta",
    "difficulty": "BEGINNER",
    "amenities": { "parking": true, "shower": true, "rental": true, "lesson": true, "cafe": true },
    "breakType": "beach_break",
    "bestSwellDirection": "SW",
    "season": "4월~10월"
  },
  {
    "name": "Berawa",
    "description": "짱구 남쪽 입구의 비치 브레이크. 꾸준하고 재미있는 파도. 서핑 후 근처 비치클럽에서 휴식하기 좋음.",
    "latitude": -8.6600,
    "longitude": 115.1420,
    "address": "Canggu, North Kuta, Badung Regency, Bali",
    "region": "Bali - Canggu",
    "difficulty": "INTERMEDIATE",
    "amenities": { "parking": true, "shower": true, "rental": true, "cafe": true },
    "breakType": "beach_break",
    "bestSwellDirection": "SW",
    "season": "4월~10월"
  },
  {
    "name": "Canggu - Batu Bolong",
    "description": "짱구의 대표 서핑 포인트. 일관성 좋은 부드러운 파도로 롱보드의 천국. 힙한 카페와 바가 즐비.",
    "latitude": -8.6540,
    "longitude": 115.1360,
    "address": "Canggu, North Kuta, Badung Regency, Bali",
    "region": "Bali - Canggu",
    "difficulty": "BEGINNER",
    "amenities": { "parking": true, "shower": true, "rental": true, "lesson": true, "cafe": true, "restaurant": true },
    "breakType": "beach_break",
    "bestSwellDirection": "SW",
    "season": "4월~10월"
  },
  {
    "name": "Old Man's",
    "description": "바투볼롱 바로 옆의 젠틀한 롱보드 파도. 나이 든 서퍼도 편하게 탈 수 있는 부드러운 파도. 짱구의 쌍둥이 포인트.",
    "latitude": -8.6530,
    "longitude": 115.1350,
    "address": "Canggu, North Kuta, Badung Regency, Bali",
    "region": "Bali - Canggu",
    "difficulty": "BEGINNER",
    "amenities": { "parking": true, "rental": true, "cafe": true },
    "breakType": "beach_break",
    "bestSwellDirection": "SW",
    "season": "4월~10월"
  },
  {
    "name": "Echo Beach",
    "description": "짱구 에코비치. 빠르고 장난스러운 레프트 핸드 리프. 다양한 파도가 형성. 석양과 함께 서핑하는 분위기 최고.",
    "latitude": -8.6500,
    "longitude": 115.1310,
    "address": "Canggu, North Kuta, Badung Regency, Bali",
    "region": "Bali - Canggu",
    "difficulty": "INTERMEDIATE",
    "amenities": { "parking": true, "shower": true, "rental": true, "cafe": true },
    "breakType": "reef_break",
    "bestSwellDirection": "SW",
    "season": "4월~10월"
  },
  {
    "name": "Canggu Sandbar",
    "description": "짱구에서 상급 서퍼에게 가장 흥미로운 파도. 모래톱 위에서 형성되는 강력한 비치 브레이크.",
    "latitude": -8.6480,
    "longitude": 115.1290,
    "address": "Canggu, North Kuta, Badung Regency, Bali",
    "region": "Bali - Canggu",
    "difficulty": "ADVANCED",
    "amenities": { "parking": true },
    "breakType": "beach_break",
    "bestSwellDirection": "SW",
    "season": "4월~10월"
  },
  {
    "name": "Canggu Rivermouth",
    "description": "짱구 프리미어 웨이브. 강 하구에서 형성되는 강력한 파도. 발리 최고의 비치 브레이크 중 하나.",
    "latitude": -8.6460,
    "longitude": 115.1270,
    "address": "Canggu, North Kuta, Badung Regency, Bali",
    "region": "Bali - Canggu",
    "difficulty": "ADVANCED",
    "amenities": { "parking": true },
    "breakType": "beach_break",
    "bestSwellDirection": "SW",
    "season": "4월~10월"
  },
  {
    "name": "Pererenan",
    "description": "짱구 북쪽의 리프 브레이크. 펀치있는 라이트와 긴 레프트 제공. 에코비치보다 크라우드가 적음.",
    "latitude": -8.6420,
    "longitude": 115.1240,
    "address": "Pererenan, North Kuta, Badung Regency, Bali",
    "region": "Bali - Canggu",
    "difficulty": "INTERMEDIATE",
    "amenities": { "parking": true, "cafe": true },
    "breakType": "reef_break",
    "bestSwellDirection": "SW",
    "season": "4월~10월"
  },
  {
    "name": "Kedungu",
    "description": "짱구 북쪽의 부드러운 비치 브레이크. 초보자 친화적이며 한적한 포인트.",
    "latitude": -8.6140,
    "longitude": 115.0900,
    "address": "Belalang, Kediri, Tabanan, Bali",
    "region": "Bali - West Coast",
    "difficulty": "BEGINNER",
    "amenities": { "parking": true },
    "breakType": "beach_break",
    "bestSwellDirection": "SW",
    "season": "4월~10월"
  },
  {
    "name": "Yeh Gangga",
    "description": "발리 서해안 최고 품질의 비치 브레이크. 파워풀하고 깔끔한 파도. 관광객이 적어 한적.",
    "latitude": -8.5870,
    "longitude": 115.0540,
    "address": "Tabanan, Bali",
    "region": "Bali - West Coast",
    "difficulty": "INTERMEDIATE",
    "amenities": { "parking": true },
    "breakType": "beach_break",
    "bestSwellDirection": "SW",
    "season": "4월~10월"
  },
  {
    "name": "Pig Stone",
    "description": "서해안의 크라우드 없는 옵션. 혼합 브레이크로 다양한 파도. 현지인들만 아는 포인트.",
    "latitude": -8.5750,
    "longitude": 115.0420,
    "address": "Tabanan, Bali",
    "region": "Bali - West Coast",
    "difficulty": "INTERMEDIATE",
    "amenities": { "parking": true },
    "breakType": "beach_reef_break",
    "bestSwellDirection": "SW",
    "season": "4월~10월"
  },
  {
    "name": "Truck Stops",
    "description": "부드러운 레프트 파도. 초중급자에게 적합. 근처 도로에 트럭이 자주 정차해서 붙여진 이름.",
    "latitude": -8.5650,
    "longitude": 115.0300,
    "address": "Tabanan, Bali",
    "region": "Bali - West Coast",
    "difficulty": "BEGINNER",
    "amenities": { "parking": true },
    "breakType": "beach_break",
    "bestSwellDirection": "SW",
    "season": "4월~10월"
  },
  {
    "name": "Balian",
    "description": "일관성 좋은 스웰 자석. A-프레임/비치 브레이크로 다양한 방향의 파도. 요가+서핑 여행지로 인기.",
    "latitude": -8.4750,
    "longitude": 114.9270,
    "address": "Lalanglinggah, Selemadeg Barat, Tabanan, Bali",
    "region": "Bali - West Coast",
    "difficulty": "INTERMEDIATE",
    "amenities": { "parking": true, "cafe": true },
    "breakType": "beach_break",
    "bestSwellDirection": "SW",
    "season": "4월~10월"
  },
  {
    "name": "Yeh Sumbul",
    "description": "메데위 동쪽의 부드러운 비치/자갈 브레이크. 메데위보다 파도가 순해 초중급자에게 적합.",
    "latitude": -8.3980,
    "longitude": 114.8700,
    "address": "Jembrana, Bali",
    "region": "Bali - West Coast",
    "difficulty": "BEGINNER",
    "amenities": { "parking": true },
    "breakType": "beach_break",
    "bestSwellDirection": "SW",
    "season": "4월~10월"
  },
  {
    "name": "Medewi",
    "description": "발리에서 가장 길고 부드러운 레프트 핸드 포인트 브레이크. 느린 벽을 따라 긴 라이드 가능. 롱보드 서핑에 최적.",
    "latitude": -8.3680,
    "longitude": 114.8310,
    "address": "Medewi, Pekutatan, Jembrana, Bali",
    "region": "Bali - West Coast",
    "difficulty": "INTERMEDIATE",
    "amenities": { "parking": true, "rental": true, "cafe": true },
    "breakType": "point_break",
    "bestSwellDirection": "SW",
    "season": "4월~10월"
  },
  {
    "name": "Medewi Right",
    "description": "메데위 메인 포인트 맞은편의 펀치있는 라이트. 메인보다 파워풀하고 빠름.",
    "latitude": -8.3670,
    "longitude": 114.8320,
    "address": "Medewi, Pekutatan, Jembrana, Bali",
    "region": "Bali - West Coast",
    "difficulty": "ADVANCED",
    "amenities": { "parking": true },
    "breakType": "point_break",
    "bestSwellDirection": "SW",
    "season": "4월~10월"
  },
  {
    "name": "Pulukan",
    "description": "메데위 서쪽의 리프/바위 브레이크. A-프레임과 라이트가 혼합. 크라우드 없는 조용한 포인트.",
    "latitude": -8.3500,
    "longitude": 114.8000,
    "address": "Pulukan, Pekutatan, Jembrana, Bali",
    "region": "Bali - West Coast",
    "difficulty": "INTERMEDIATE",
    "amenities": { "parking": true },
    "breakType": "reef_break",
    "bestSwellDirection": "SW",
    "season": "4월~10월"
  },
  {
    "name": "Serangan",
    "description": "거북이 섬(Turtle Island) 앞 리프. 우기(11~3월) 스웰 자석. 가장 작은 날에도 파도가 있음. A-프레임으로 레프트/라이트 모두 가능.",
    "latitude": -8.7350,
    "longitude": 115.2280,
    "address": "Serangan, Denpasar Selatan, Bali",
    "region": "Bali - Sanur",
    "difficulty": "INTERMEDIATE",
    "amenities": { "parking": true },
    "breakType": "reef_break",
    "bestSwellDirection": "SE",
    "season": "11월~3월"
  },
  {
    "name": "Baby Reef",
    "description": "사누르 앞바다의 부드러운 리프. 레프트와 라이트 모두 순한 파도. 롱보드 프렌들리. 발리 리프 서핑 입문에 최적.",
    "latitude": -8.7050,
    "longitude": 115.2670,
    "address": "Sanur, Denpasar Selatan, Bali",
    "region": "Bali - Sanur",
    "difficulty": "BEGINNER",
    "amenities": { "parking": true },
    "breakType": "reef_break",
    "bestSwellDirection": "SE",
    "season": "4월~10월"
  },
  {
    "name": "Hyatt Reef",
    "description": "해안에서 2km 오프쇼어 리프. Outside Peak는 홀로우 배럴, Main Peak는 퍼포먼스 월. Mertasari 해변에서 보트로 접근.",
    "latitude": -8.6900,
    "longitude": 115.2720,
    "address": "Sanur, Denpasar Selatan, Bali",
    "region": "Bali - Sanur",
    "difficulty": "INTERMEDIATE",
    "amenities": { "parking": false },
    "breakType": "reef_break",
    "bestSwellDirection": "SE",
    "season": "4월~10월"
  },
  {
    "name": "Sindhu Right",
    "description": "사누르의 빠른 라이트 핸드 리프. 긴 라인부터 헤비 배럴까지 다양.",
    "latitude": -8.6830,
    "longitude": 115.2680,
    "address": "Sanur, Denpasar Selatan, Bali",
    "region": "Bali - Sanur",
    "difficulty": "INTERMEDIATE",
    "amenities": { "parking": true },
    "breakType": "reef_break",
    "bestSwellDirection": "SE",
    "season": "11월~3월"
  },
  {
    "name": "Sindhu Left",
    "description": "사누르 신두 해변 앞 레프트 핸드 리프. 탑-헤비(파도 윗부분이 먼저 깨지는) 쉐이프가 특징.",
    "latitude": -8.6820,
    "longitude": 115.2670,
    "address": "Sanur, Denpasar Selatan, Bali",
    "region": "Bali - Sanur",
    "difficulty": "INTERMEDIATE",
    "amenities": { "parking": true },
    "breakType": "reef_break",
    "bestSwellDirection": "SE",
    "season": "11월~3월"
  },
  {
    "name": "Sanur Reef",
    "description": "사누르 외곽의 드레징 전문가 전용 라이트. 대형 스웰에서만 작동. 홀로우하고 위험한 리프.",
    "latitude": -8.6750,
    "longitude": 115.2730,
    "address": "Sanur, Denpasar Selatan, Bali",
    "region": "Bali - Sanur",
    "difficulty": "ADVANCED",
    "amenities": { "parking": true },
    "breakType": "reef_break",
    "bestSwellDirection": "SE",
    "season": "11월~3월"
  },
  {
    "name": "Ketewel",
    "description": "동해안의 빠른 홀로우 라이트 핸드 리프. 케라마스보다 크라우드가 적어 로컬 서퍼가 선호.",
    "latitude": -8.6100,
    "longitude": 115.3350,
    "address": "Ketewel, Sukawati, Gianyar, Bali",
    "region": "Bali - East Coast",
    "difficulty": "INTERMEDIATE",
    "amenities": { "parking": true },
    "breakType": "reef_break",
    "bestSwellDirection": "SE",
    "season": "4월~10월"
  },
  {
    "name": "Keramas Beach",
    "description": "WSL 챔피언십 투어 개최지. 월드클래스 라이트 핸드 리프. 파워풀하고 빠른 배럴이 특징. 야간 서핑 조명 있음. 상급자 전용.",
    "latitude": -8.5750,
    "longitude": 115.3530,
    "address": "Medahan, Blahbatuh, Gianyar, Bali",
    "region": "Bali - East Coast",
    "difficulty": "EXPERT",
    "amenities": { "parking": true, "cafe": true },
    "breakType": "reef_break",
    "bestSwellDirection": "SE",
    "season": "4월~10월"
  },
  {
    "name": "KFC",
    "description": "케라마스 지역에서 가장 쉽고 크라우드가 적은 라이트 핸드 리프. 케라마스 입문용으로 중급자에게 추천.",
    "latitude": -8.5780,
    "longitude": 115.3500,
    "address": "Medahan, Blahbatuh, Gianyar, Bali",
    "region": "Bali - East Coast",
    "difficulty": "INTERMEDIATE",
    "amenities": { "parking": true },
    "breakType": "reef_break",
    "bestSwellDirection": "SE",
    "season": "4월~10월"
  },
  {
    "name": "Cucukan",
    "description": "깔끔하고 리핑 가능한 라이트 핸드 리프. 케라마스 북쪽에 위치. 중급자 퍼포먼스 서핑에 좋음.",
    "latitude": -8.5600,
    "longitude": 115.3600,
    "address": "Blahbatuh, Gianyar, Bali",
    "region": "Bali - East Coast",
    "difficulty": "INTERMEDIATE",
    "amenities": { "parking": true },
    "breakType": "reef_break",
    "bestSwellDirection": "SE",
    "season": "4월~10월"
  },
  {
    "name": "Carparks",
    "description": "케라마스 근처의 펀치있는 오버플로우 스팟. 케라마스 크라우드 대안. 상급자 추천.",
    "latitude": -8.5550,
    "longitude": 115.3650,
    "address": "Blahbatuh, Gianyar, Bali",
    "region": "Bali - East Coast",
    "difficulty": "ADVANCED",
    "amenities": { "parking": true },
    "breakType": "reef_break",
    "bestSwellDirection": "SE",
    "season": "4월~10월"
  },
  {
    "name": "Klotok",
    "description": "동해안에서 중급자에게 가장 친화적인 포인트 브레이크. 동해안 리프 서핑 입문에 적합.",
    "latitude": -8.5300,
    "longitude": 115.3800,
    "address": "Klungkung, Bali",
    "region": "Bali - East Coast",
    "difficulty": "INTERMEDIATE",
    "amenities": { "parking": true },
    "breakType": "point_break",
    "bestSwellDirection": "SE",
    "season": "4월~10월"
  },
  {
    "name": "Biaung",
    "description": "파워풀하고 펀치있는 비치 브레이크. 사누르와 케라마스 사이에 위치. 조건 좋을 때 강한 파도.",
    "latitude": -8.6300,
    "longitude": 115.3100,
    "address": "Kesiman Kertalangu, Denpasar, Bali",
    "region": "Bali - East Coast",
    "difficulty": "INTERMEDIATE",
    "amenities": { "parking": true },
    "breakType": "beach_break",
    "bestSwellDirection": "SE",
    "season": "4월~10월"
  },
  {
    "name": "Jasri",
    "description": "동부 발리(까랑아셈)의 롱 하이 퍼포먼스 포인트 브레이크. 긴 라이드가 가능한 상급 포인트.",
    "latitude": -8.4700,
    "longitude": 115.5700,
    "address": "Jasri, Karangasem, Bali",
    "region": "Bali - East Coast",
    "difficulty": "ADVANCED",
    "amenities": { "parking": true },
    "breakType": "point_break",
    "bestSwellDirection": "SE",
    "season": "4월~10월"
  },
  {
    "name": "Playgrounds",
    "description": "렘봉안에서 가장 인기 있는 A-프레임 리프. 유저 프렌들리한 파도로 중급자에게 최적. 보트 접근.",
    "latitude": -8.6800,
    "longitude": 115.4450,
    "address": "Nusa Lembongan, Klungkung, Bali",
    "region": "Bali - Lembongan",
    "difficulty": "INTERMEDIATE",
    "amenities": { "parking": false },
    "breakType": "reef_break",
    "bestSwellDirection": "S",
    "season": "4월~10월"
  },
  {
    "name": "Lacerations",
    "description": "렘봉안의 크라운 주얼. 월드클래스 배럴이 가능한 리프 브레이크. 얕은 리프에 주의.",
    "latitude": -8.6850,
    "longitude": 115.4410,
    "address": "Nusa Lembongan, Klungkung, Bali",
    "region": "Bali - Lembongan",
    "difficulty": "INTERMEDIATE",
    "amenities": { "parking": false },
    "breakType": "reef_break",
    "bestSwellDirection": "S",
    "season": "4월~10월"
  },
  {
    "name": "Razors",
    "description": "렘봉안의 긴 레프트 핸드 리프. 다양한 레벨에서 즐길 수 있는 범용 포인트.",
    "latitude": -8.6870,
    "longitude": 115.4380,
    "address": "Nusa Lembongan, Klungkung, Bali",
    "region": "Bali - Lembongan",
    "difficulty": "INTERMEDIATE",
    "amenities": { "parking": false },
    "breakType": "reef_break",
    "bestSwellDirection": "S",
    "season": "4월~10월"
  },
  {
    "name": "Shipwrecks",
    "description": "렘봉안 북쪽의 파워풀한 라이트 핸드 리프. 강한 조류와 큰 파도가 특징.",
    "latitude": -8.6750,
    "longitude": 115.4500,
    "address": "Nusa Lembongan, Klungkung, Bali",
    "region": "Bali - Lembongan",
    "difficulty": "INTERMEDIATE",
    "amenities": { "parking": false },
    "breakType": "reef_break",
    "bestSwellDirection": "SE",
    "season": "4월~10월"
  },
  {
    "name": "Ceningan",
    "description": "체닝안 섬의 스웰 자석. 항상 다른 곳보다 파도가 큼. 헤비한 조건의 리프 브레이크. 상급자 전용.",
    "latitude": -8.6950,
    "longitude": 115.4500,
    "address": "Nusa Ceningan, Klungkung, Bali",
    "region": "Bali - Lembongan",
    "difficulty": "ADVANCED",
    "amenities": { "parking": false },
    "breakType": "reef_break",
    "bestSwellDirection": "S",
    "season": "4월~10월"
  }
]
